{"type": "FeatureCollection", "features": [{"geometry": {"type": "Point", "coordinates": [-121.90178200000001, 37.329732]}, "type": "Feature", "id": 0, "properties": {"marker-color": "#0e2f44", "dockcount": 27.0, "trip_counts": 4035, "name": "San Jose Diridon Caltrain Station"}}, {"geometry": {"type": "Point", "coordinates": [-121.88897900000001, 37.330697999999998]}, "type": "Feature", "id": 1, "properties": {"marker-color": "#0e2f44", "dockcount": 15.0, "trip_counts": 543, "name": "San Jose Civic Center"}}, {"geometry": {"type": "Point", "coordinates": [-121.894902, 37.333987999999998]}, "type": "Feature", "id": 2, "properties": {"marker-color": "#0e2f44", "dockcount": 11.0, "trip_counts": 1447, "name": "Santa Clara at Almaden"}}, {"geometry": {"type": "Point", "coordinates": [-121.89319999999999, 37.331415]}, "type": "Feature", "id": 3, "properties": {"marker-color": "#0e2f44", "dockcount": 19.0, "trip_counts": 789, "name": "Adobe on Almaden"}}, {"geometry": {"type": "Point", "coordinates": [-121.894074, 37.336721000000004]}, "type": "Feature", "id": 4, "properties": {"marker-color": "#0e2f44", "dockcount": 15.0, "trip_counts": 1215, "name": "San Pedro Square"}}, {"geometry": {"type": "Point", "coordinates": [-121.88694299999999, 37.333798000000002]}, "type": "Feature", "id": 5, "properties": {"marker-color": "#0e2f44", "dockcount": 15.0, "trip_counts": 833, "name": "Paseo de San Antonio"}}, {"geometry": {"type": "Point", "coordinates": [-121.88583100000001, 37.330165000000001]}, "type": "Feature", "id": 6, "properties": {"marker-color": "#0e2f44", "dockcount": 15.0, "trip_counts": 540, "name": "San Salvador at 1st"}}, {"geometry": {"type": "Point", "coordinates": [-121.89471499999999, 37.348742000000001]}, "type": "Feature", "id": 7, "properties": {"marker-color": "#0e2f44", "dockcount": 15.0, "trip_counts": 945, "name": "Japantown"}}, {"geometry": {"type": "Point", "coordinates": [-121.886995, 37.337390999999997]}, "type": "Feature", "id": 8, "properties": {"marker-color": "#0e2f44", "dockcount": 15.0, "trip_counts": 518, "name": "San Jose City Hall"}}, {"geometry": {"type": "Point", "coordinates": [-121.88566000000002, 37.335884999999998]}, "type": "Feature", "id": 9, "properties": {"marker-color": "#0e2f44", "dockcount": 19.0, "trip_counts": 630, "name": "MLK Library"}}, {"geometry": {"type": "Point", "coordinates": [-121.88389099999999, 37.332808]}, "type": "Feature", "id": 10, "properties": {"marker-color": "#0e2f44", "dockcount": 19.0, "trip_counts": 363, "name": "SJSU 4th at San Carlos"}}, {"geometry": {"type": "Point", "coordinates": [-121.88993700000002, 37.339300999999999]}, "type": "Feature", "id": 11, "properties": {"marker-color": "#0e2f44", "dockcount": 15.0, "trip_counts": 694, "name": "St James Park"}}, {"geometry": {"type": "Point", "coordinates": [-121.90008400000001, 37.332692000000002]}, "type": "Feature", "id": 12, "properties": {"marker-color": "#0e2f44", "dockcount": 19.0, "trip_counts": 547, "name": "Arena Green / SAP Center"}}, {"geometry": {"type": "Point", "coordinates": [-121.877349, 37.333954999999996]}, "type": "Feature", "id": 13, "properties": {"marker-color": "#0e2f44", "dockcount": 15.0, "trip_counts": 481, "name": "SJSU - San Salvador at 9th"}}, {"geometry": {"type": "Point", "coordinates": [-121.90573300000001, 37.352601]}, "type": "Feature", "id": 14, "properties": {"marker-color": "#0e2f44", "dockcount": 15.0, "trip_counts": 420, "name": "Santa Clara County Civic Center"}}, {"geometry": {"type": "Point", "coordinates": [-121.89561699999999, 37.342725000000002]}, "type": "Feature", "id": 15, "properties": {"dockcount": 15.0, "trip_counts": 879, "name": "Ryland Park"}}, {"geometry": {"type": "Point", "coordinates": [-121.890429, 37.332397999999998]}, "type": "Feature", "id": 16, "properties": {"dockcount": 19.0, "trip_counts": 84, "name": "S. Market st at Park Ave"}}, {"geometry": {"type": "Point", "coordinates": [-121.88163, 37.331957000000003]}, "type": "Feature", "id": 17, "properties": {"dockcount": 19.0, "trip_counts": 20, "name": "5th S. at E. San Salvador St"}}, {"geometry": {"type": "Point", "coordinates": [-122.39997, 37.795000999999999]}, "type": "Feature", "id": 18, "properties": {"marker-color": "#0e2f44", "dockcount": 15.0, "trip_counts": 4357, "name": "Clay at Battery"}}, {"geometry": {"type": "Point", "coordinates": [-122.398436, 37.797280000000001]}, "type": "Feature", "id": 19, "properties": {"marker-color": "#0e2f44", "dockcount": 15.0, "trip_counts": 5240, "name": "Davis at Jackson"}}, {"geometry": {"type": "Point", "coordinates": [-122.402923, 37.794230999999996]}, "type": "Feature", "id": 20, "properties": {"marker-color": "#0e2f44", "dockcount": 15.0, "trip_counts": 4969, "name": "Commercial at Montgomery"}}, {"geometry": {"type": "Point", "coordinates": [-122.40476699999999, 37.795425000000002]}, "type": "Feature", "id": 21, "properties": {"marker-color": "#0e2f44", "dockcount": 15.0, "trip_counts": 2844, "name": "Washington at Kearney"}}, {"geometry": {"type": "Point", "coordinates": [-122.403452, 37.788975000000001]}, "type": "Feature", "id": 22, "properties": {"marker-color": "#0e2f44", "dockcount": 19.0, "trip_counts": 4348, "name": "Post at Kearney"}}, {"geometry": {"type": "Point", "coordinates": [-122.39852500000001, 37.799953000000002]}, "type": "Feature", "id": 23, "properties": {"marker-color": "#0e2f44", "dockcount": 15.0, "trip_counts": 4710, "name": "Embarcadero at Vallejo"}}, {"geometry": {"type": "Point", "coordinates": [-122.39063700000001, 37.790302000000004]}, "type": "Feature", "id": 24, "properties": {"marker-color": "#0e2f44", "dockcount": 19.0, "trip_counts": 5113, "name": "Spear at Folsom"}}, {"geometry": {"type": "Point", "coordinates": [-122.394203, 37.795392]}, "type": "Feature", "id": 25, "properties": {"marker-color": "#0e2f44", "dockcount": 23.0, "trip_counts": 16128, "name": "Harry Bridges Plaza (Ferry Building)"}}, {"geometry": {"type": "Point", "coordinates": [-122.391034, 37.791464000000005]}, "type": "Feature", "id": 26, "properties": {"marker-color": "#0e2f44", "dockcount": 19.0, "trip_counts": 7820, "name": "Embarcadero at Folsom"}}, {"geometry": {"type": "Point", "coordinates": [-122.408433, 37.783871000000005]}, "type": "Feature", "id": 27, "properties": {"marker-color": "#0e2f44", "dockcount": 19.0, "trip_counts": 6826, "name": "Powell Street BART"}}, {"geometry": {"type": "Point", "coordinates": [-122.38801299999999, 37.787151999999999]}, "type": "Feature", "id": 28, "properties": {"marker-color": "#0e2f44", "dockcount": 15.0, "trip_counts": 7714, "name": "Embarcadero at Bryant"}}, {"geometry": {"type": "Point", "coordinates": [-122.39464299999999, 37.789755999999997]}, "type": "Feature", "id": 29, "properties": {"marker-color": "#0e2f44", "dockcount": 23.0, "trip_counts": 13111, "name": "Temporary Transbay Terminal (Howard at Beale)"}}, {"geometry": {"type": "Point", "coordinates": [-122.39708600000002, 37.792251]}, "type": "Feature", "id": 30, "properties": {"marker-color": "#0e2f44", "dockcount": 19.0, "trip_counts": 7373, "name": "Beale at Market"}}, {"geometry": {"type": "Point", "coordinates": [-122.40512700000001, 37.781752000000004]}, "type": "Feature", "id": 31, "properties": {"marker-color": "#0e2f44", "dockcount": 15.0, "trip_counts": 5436, "name": "5th at Howard"}}, {"geometry": {"type": "Point", "coordinates": [-122.41823500000001, 37.778649999999999]}, "type": "Feature", "id": 32, "properties": {"marker-color": "#0e2f44", "dockcount": 19.0, "trip_counts": 2195, "name": "San Francisco City Hall"}}, {"geometry": {"type": "Point", "coordinates": [-122.418603, 37.781331999999999]}, "type": "Feature", "id": 33, "properties": {"marker-color": "#0e2f44", "dockcount": 23.0, "trip_counts": 3309, "name": "Golden Gate at Polk"}}, {"geometry": {"type": "Point", "coordinates": [-122.40323400000001, 37.804769999999998]}, "type": "Feature", "id": 34, "properties": {"marker-color": "#0e2f44", "dockcount": 15.0, "trip_counts": 13424, "name": "Embarcadero at Sansome"}}, {"geometry": {"type": "Point", "coordinates": [-122.39028799999998, 37.780526000000002]}, "type": "Feature", "id": 35, "properties": {"marker-color": "#0e2f44", "dockcount": 27.0, "trip_counts": 14099, "name": "2nd at Townsend"}}, {"geometry": {"type": "Point", "coordinates": [-122.39623600000002, 37.785299000000002]}, "type": "Feature", "id": 36, "properties": {"marker-color": "#0e2f44", "dockcount": 19.0, "trip_counts": 7464, "name": "2nd at Folsom"}}, {"geometry": {"type": "Point", "coordinates": [-122.39810800000001, 37.786978000000005]}, "type": "Feature", "id": 37, "properties": {"marker-color": "#0e2f44", "dockcount": 19.0, "trip_counts": 7583, "name": "Howard at 2nd"}}, {"geometry": {"type": "Point", "coordinates": [-122.39273799999999, 37.782259000000003]}, "type": "Feature", "id": 38, "properties": {"marker-color": "#0e2f44", "dockcount": 15.0, "trip_counts": 7722, "name": "2nd at South Park"}}, {"geometry": {"type": "Point", "coordinates": [-122.402717, 37.771058000000004]}, "type": "Feature", "id": 39, "properties": {"marker-color": "#0e2f44", "dockcount": 15.0, "trip_counts": 11170, "name": "Townsend at 7th"}}, {"geometry": {"type": "Point", "coordinates": [-122.418954, 37.774813999999999]}, "type": "Feature", "id": 40, "properties": {"marker-color": "#0e2f44", "dockcount": 19.0, "trip_counts": 5398, "name": "South Van Ness at Market"}}, {"geometry": {"type": "Point", "coordinates": [-122.41738500000001, 37.776619000000004]}, "type": "Feature", "id": 41, "properties": {"marker-color": "#0e2f44", "dockcount": 27.0, "trip_counts": 9937, "name": "Market at 10th"}}, {"geometry": {"type": "Point", "coordinates": [-122.40101399999999, 37.784878000000006]}, "type": "Feature", "id": 42, "properties": {"marker-color": "#0e2f44", "dockcount": 19.0, "trip_counts": 3460, "name": "Yerba Buena Center of the Arts (3rd @ Howard)"}}, {"geometry": {"type": "Point", "coordinates": [-122.39546999999999, 37.776600000000002]}, "type": "Feature", "id": 43, "properties": {"marker-color": "#a11f27", "dockcount": 23.0, "trip_counts": 22358, "name": "San Francisco Caltrain 2 (330 Townsend)"}}, {"geometry": {"type": "Point", "coordinates": [-122.39526000000001, 37.776617000000002]}, "type": "Feature", "id": 44, "properties": {"marker-color": "#a11f27", "dockcount": 19.0, "trip_counts": 23591, "name": "San Francisco Caltrain (Townsend at 4th)"}}, {"geometry": {"type": "Point", "coordinates": [-122.40849900000001, 37.788446]}, "type": "Feature", "id": 45, "properties": {"marker-color": "#0e2f44", "dockcount": 19.0, "trip_counts": 4488, "name": "Powell at Post (Union Square)"}}, {"geometry": {"type": "Point", "coordinates": [-122.411748, 37.781039]}, "type": "Feature", "id": 46, "properties": {"marker-color": "#0e2f44", "dockcount": 23.0, "trip_counts": 5043, "name": "Civic Center BART (7th at Market)"}}, {"geometry": {"type": "Point", "coordinates": [-122.405942, 37.797899999999998]}, "type": "Feature", "id": 47, "properties": {"dockcount": 19.0, "trip_counts": 6735, "name": "Grant Avenue at Columbus Avenue"}}, {"geometry": {"type": "Point", "coordinates": [-122.394434, 37.794139000000001]}, "type": "Feature", "id": 48, "properties": {"marker-color": "#0e2f44", "dockcount": 23.0, "trip_counts": 13693, "name": "Steuart at Market"}}, {"geometry": {"type": "Point", "coordinates": [-122.399051, 37.7913]}, "type": "Feature", "id": 49, "properties": {"marker-color": "#0e2f44", "dockcount": 19.0, "trip_counts": 5613, "name": "Mechanics Plaza (Market at Battery)"}}, {"geometry": {"type": "Point", "coordinates": [-122.40496599999999, 37.786304999999999]}, "type": "Feature", "id": 50, "properties": {"marker-color": "#0e2f44", "dockcount": 19.0, "trip_counts": 7337, "name": "Market at 4th"}}, {"geometry": {"type": "Point", "coordinates": [-122.400811, 37.789625000000001]}, "type": "Feature", "id": 51, "properties": {"marker-color": "#0e2f44", "dockcount": 27.0, "trip_counts": 10970, "name": "Market at Sansome"}}, {"geometry": {"type": "Point", "coordinates": [-122.40086200000002, 37.798541]}, "type": "Feature", "id": 52, "properties": {"dockcount": 15.0, "trip_counts": 5695, "name": "Broadway St at Battery St"}}, {"geometry": {"type": "Point", "coordinates": [-122.403158, 37.780147999999997]}, "type": "Feature", "id": 53, "properties": {"dockcount": 31.0, "trip_counts": 173, "name": "5th St at Folsom St"}}, {"geometry": {"type": "Point", "coordinates": [-122.408891, 37.785907999999999]}, "type": "Feature", "id": 54, "properties": {"dockcount": 35.0, "trip_counts": 69, "name": "Cyril Magnin St at Ellis St"}}, {"geometry": {"type": "Point", "coordinates": [-122.164759, 37.443987999999997]}, "type": "Feature", "id": 55, "properties": {"marker-color": "#0e2f44", "dockcount": 23.0, "trip_counts": 1170, "name": "Palo Alto Caltrain Station"}}, {"geometry": {"type": "Point", "coordinates": [-122.16309299999999, 37.444521000000002]}, "type": "Feature", "id": 56, "properties": {"marker-color": "#0e2f44", "dockcount": 11.0, "trip_counts": 490, "name": "University and Emerson"}}, {"geometry": {"type": "Point", "coordinates": [-122.14280500000001, 37.429082000000001]}, "type": "Feature", "id": 57, "properties": {"marker-color": "#0e2f44", "dockcount": 15.0, "trip_counts": 392, "name": "California Ave Caltrain Station"}}, {"geometry": {"type": "Point", "coordinates": [-122.159504, 37.448597999999997]}, "type": "Feature", "id": 58, "properties": {"marker-color": "#0e2f44", "dockcount": 11.0, "trip_counts": 788, "name": "Cowper at University"}}, {"geometry": {"type": "Point", "coordinates": [-122.13777749999998, 37.425683899999996]}, "type": "Feature", "id": 59, "properties": {"marker-color": "#0e2f44", "dockcount": 15.0, "trip_counts": 276, "name": "Park at Olive"}}, {"geometry": {"type": "Point", "coordinates": [-122.081896, 37.389218]}, "type": "Feature", "id": 60, "properties": {"marker-color": "#0e2f44", "dockcount": 15.0, "trip_counts": 1291, "name": "Mountain View City Hall"}}, {"geometry": {"type": "Point", "coordinates": [-122.07671299999998, 37.394358000000004]}, "type": "Feature", "id": 61, "properties": {"marker-color": "#0e2f44", "dockcount": 23.0, "trip_counts": 2515, "name": "Mountain View Caltrain Station"}}, {"geometry": {"type": "Point", "coordinates": [-122.10675800000001, 37.406940000000006]}, "type": "Feature", "id": 62, "properties": {"marker-color": "#0e2f44", "dockcount": 23.0, "trip_counts": 611, "name": "San Antonio Caltrain Station"}}, {"geometry": {"type": "Point", "coordinates": [-122.052476, 37.395336999999998]}, "type": "Feature", "id": 63, "properties": {"dockcount": 15.0, "trip_counts": 137, "name": "Middlefield Light Rail Station"}}, {"geometry": {"type": "Point", "coordinates": [-122.10833799999999, 37.400443000000003]}, "type": "Feature", "id": 64, "properties": {"marker-color": "#0e2f44", "dockcount": 15.0, "trip_counts": 559, "name": "San Antonio Shopping Center"}}, {"geometry": {"type": "Point", "coordinates": [-122.08367800000001, 37.385956]}, "type": "Feature", "id": 65, "properties": {"marker-color": "#0e2f44", "dockcount": 11.0, "trip_counts": 1014, "name": "Castro Street and El Camino Real"}}, {"geometry": {"type": "Point", "coordinates": [-122.080623, 37.420909000000002]}, "type": "Feature", "id": 66, "properties": {"dockcount": 15.0, "trip_counts": 385, "name": "Charleston Park/ North Bayshore Area"}}]}